{"version":"1.0.898","success":true,"completed_in":0.004,"account":59889953,"limit":250,"period":"week","since":1384129072688,"since_str":"2013-11-11 00:17:52.688","locations":[{"rank":1,"city":"Chicago","state":"Illinois","state_code":"IL","latitude":41.883823,"longitude":-87.632469,"population":2853114,"new_follower_count":13},{"rank":2,"city":"Los Angeles","state":"California","state_code":"CA","latitude":34.0522,"longitude":-118.242798,"population":3833995,"new_follower_count":12},{"rank":3,"city":"Atlanta","state":"Georgia","state_code":"GA","latitude":33.748901,"longitude":-84.3881,"population":537958,"new_follower_count":11},{"rank":4,"city":"New York","state":"New York","state_code":"NY","latitude":40.720409,"longitude":-73.994637,"population":8363710,"new_follower_count":7},{"rank":5,"city":"Charlotte","state":"North Carolina","state_code":"NC","latitude":35.226898,"longitude":-80.8433,"population":687456,"new_follower_count":6},{"rank":6,"city":"Las Vegas","state":"Nevada","state_code":"NV","latitude":36.174999,"longitude":-115.136398,"population":558383,"new_follower_count":6},{"rank":7,"city":"Pittsburgh","state":"Pennsylvania","state_code":"PA","latitude":40.440601,"longitude":-79.996101,"population":310037,"new_follower_count":6},{"rank":8,"city":"Boston","state":"Massachusetts","state_code":"MA","latitude":42.358299,"longitude":-71.060303,"population":609023,"new_follower_count":5},{"rank":9,"city":"Houston","state":"Texas","state_code":"TX","latitude":29.7631,"longitude":-95.363098,"population":2242193,"new_follower_count":5},{"rank":10,"city":"Cincinnati","state":"Ohio","state_code":"OH","latitude":39.1619,"longitude":-84.456902,"population":333336,"new_follower_count":4},{"rank":11,"city":"Dallas","state":"Texas","state_code":"TX","latitude":32.783298,"longitude":-96.800003,"population":1279910,"new_follower_count":4},{"rank":12,"city":"Seattle","state":"Washington","state_code":"WA","latitude":47.6064,"longitude":-122.330803,"population":598541,"new_follower_count":4},{"rank":13,"city":"Washington","state":"District of Columbia","state_code":"DC","latitude":38.892143,"longitude":-77.036156,"population":591833,"new_follower_count":4},{"rank":14,"city":"Nashville","state":"Tennessee","state_code":"TN","latitude":36.165798,"longitude":-86.784401,"population":596462,"new_follower_count":4},{"rank":15,"city":"Tampa","state":"Florida","state_code":"FL","latitude":27.947201,"longitude":-82.458603,"population":340882,"new_follower_count":4},{"rank":16,"city":"Miami","state":"Florida","state_code":"FL","latitude":25.773899,"longitude":-80.193901,"population":413201,"new_follower_count":4},{"rank":17,"city":"Baltimore","state":"Maryland","state_code":"MD","latitude":39.290298,"longitude":-76.612503,"population":636919,"new_follower_count":3},{"rank":18,"city":"Columbia","state":"South Carolina","state_code":"SC","latitude":34.000599,"longitude":-81.035004,"population":127029,"new_follower_count":3},{"rank":19,"city":"Brooklyn","state":"New York","state_code":"NY","latitude":40.650002,"longitude":-73.949997,"population":0,"new_follower_count":3},{"rank":20,"city":"Omaha","state":"Nebraska","state_code":"NE","latitude":41.258598,"longitude":-95.9375,"population":438646,"new_follower_count":3},{"rank":21,"city":"Portland","state":"Oregon","state_code":"OR","latitude":45.523602,"longitude":-122.675003,"population":557706,"new_follower_count":3},{"rank":22,"city":"Toledo","state":"Ohio","state_code":"OH","latitude":41.663898,"longitude":-83.555298,"population":293201,"new_follower_count":3},{"rank":23,"city":"Lubbock","state":"Texas","state_code":"TX","latitude":33.577801,"longitude":-101.854698,"population":220483,"new_follower_count":2},{"rank":24,"city":"Allentown","state":"Pennsylvania","state_code":"PA","latitude":40.608299,"longitude":-75.490601,"population":107250,"new_follower_count":2},{"rank":25,"city":"Farmington Hills","state":"Michigan","state_code":"MI","latitude":42.485279,"longitude":-83.37722,"population":78522,"new_follower_count":2},{"rank":26,"city":"San Francisco","state":"California","state_code":"CA","latitude":37.775002,"longitude":-122.418297,"population":808976,"new_follower_count":2},{"rank":27,"city":"San Diego","state":"California","state_code":"CA","latitude":32.715302,"longitude":-117.156403,"population":1279329,"new_follower_count":2},{"rank":28,"city":"Orlando","state":"Florida","state_code":"FL","latitude":28.538099,"longitude":-81.379402,"population":230519,"new_follower_count":2},{"rank":29,"city":"Madison","state":"Wisconsin","state_code":"WI","latitude":43.073101,"longitude":-89.4011,"population":231916,"new_follower_count":2},{"rank":30,"city":"Cleveland","state":"Ohio","state_code":"OH","latitude":41.499401,"longitude":-81.695602,"population":433748,"new_follower_count":2},{"rank":31,"city":"Jacksonville","state":"Florida","state_code":"FL","latitude":30.3319,"longitude":-81.6558,"population":807815,"new_follower_count":2},{"rank":32,"city":"Philadelphia","state":"Pennsylvania","state_code":"PA","latitude":39.952202,"longitude":-75.1642,"population":1447395,"new_follower_count":2},{"rank":33,"city":"Columbus","state":"Ohio","state_code":"OH","latitude":39.961102,"longitude":-82.998901,"population":754885,"new_follower_count":2},{"rank":34,"city":"San Antonio","state":"Texas","state_code":"TX","latitude":29.423901,"longitude":-98.493301,"population":1351305,"new_follower_count":2},{"rank":35,"city":"Birmingham","state":"Alabama","state_code":"AL","latitude":33.520598,"longitude":-86.802498,"population":228798,"new_follower_count":2},{"rank":36,"city":"Tulsa","state":"Oklahoma","state_code":"OK","latitude":36.1539,"longitude":-95.9925,"population":385635,"new_follower_count":2},{"rank":37,"city":"Littleton","state":"Colorado","state_code":"CO","latitude":39.6133,"longitude":-105.016098,"population":40777,"new_follower_count":2},{"rank":38,"city":"San Jose","state":"California","state_code":"CA","latitude":37.339401,"longitude":-121.893898,"population":948279,"new_follower_count":2},{"rank":39,"city":"Detroit","state":"Michigan","state_code":"MI","latitude":42.331402,"longitude":-83.045799,"population":912062,"new_follower_count":2},{"rank":40,"city":"Yuma","state":"Arizona","state_code":"AZ","latitude":32.725299,"longitude":-114.623596,"population":90041,"new_follower_count":1},{"rank":41,"city":"Hempstead","state":"Texas","state_code":"TX","latitude":30.0972,"longitude":-96.078102,"population":7401,"new_follower_count":1},{"rank":42,"city":"Norfolk","state":"Virginia","state_code":"VA","latitude":36.846699,"longitude":-76.285599,"population":234220,"new_follower_count":1},{"rank":43,"city":"Portsmouth","state":"Ohio","state_code":"OH","latitude":38.731701,"longitude":-82.997803,"population":20297,"new_follower_count":1},{"rank":44,"city":"Fillmore","state":"California","state_code":"CA","latitude":34.3992,"longitude":-118.917198,"population":15053,"new_follower_count":1},{"rank":45,"city":"Kokomo","state":"Indiana","state_code":"IN","latitude":40.486401,"longitude":-86.133598,"population":45694,"new_follower_count":1},{"rank":46,"city":"Bakersfield","state":"California","state_code":"CA","latitude":35.373299,"longitude":-119.017799,"population":321078,"new_follower_count":1},{"rank":47,"city":"Lawrenceville","state":"Georgia","state_code":"GA","latitude":33.9561,"longitude":-83.988098,"population":29258,"new_follower_count":1},{"rank":48,"city":"Battle Creek","state":"Michigan","state_code":"MI","latitude":42.321098,"longitude":-85.179703,"population":52053,"new_follower_count":1},{"rank":49,"city":"South St. Paul","state":"Minnesota","state_code":"MN","latitude":44.892799,"longitude":-93.034698,"population":19552,"new_follower_count":1},{"rank":50,"city":"Dayton","state":"Tennessee","state_code":"TN","latitude":35.4939,"longitude":-85.012497,"population":6771,"new_follower_count":1},{"rank":51,"city":"Tallahassee","state":"Florida","state_code":"FL","latitude":30.438101,"longitude":-84.2808,"population":171922,"new_follower_count":1},{"rank":52,"city":"Tifton","state":"Georgia","state_code":"GA","latitude":31.4503,"longitude":-83.508598,"population":17284,"new_follower_count":1},{"rank":53,"city":"Roanoke","state":"Virginia","state_code":"VA","latitude":37.270802,"longitude":-79.941704,"population":92967,"new_follower_count":1},{"rank":54,"city":"Independence","state":"Kentucky","state_code":"KY","latitude":38.9431,"longitude":-84.544197,"population":21694,"new_follower_count":1},{"rank":55,"city":"Sunnyvale","state":"California","state_code":"CA","latitude":37.3689,"longitude":-122.035301,"population":132109,"new_follower_count":1},{"rank":56,"city":"San Luis","state":"Arizona","state_code":"AZ","latitude":32.4869,"longitude":-114.781403,"population":24909,"new_follower_count":1},{"rank":57,"city":"Findlay","state":"Ohio","state_code":"OH","latitude":41.044201,"longitude":-83.650002,"population":36987,"new_follower_count":1},{"rank":58,"city":"Oxford","state":"Alabama","state_code":"AL","latitude":33.614201,"longitude":-85.834999,"population":20622,"new_follower_count":1},{"rank":59,"city":"Gary","state":"Indiana","state_code":"IN","latitude":41.5933,"longitude":-87.346397,"population":95920,"new_follower_count":1},{"rank":60,"city":"Zanesville","state":"Ohio","state_code":"OH","latitude":39.9403,"longitude":-82.013298,"population":25129,"new_follower_count":1},{"rank":61,"city":"Ypsilanti","state":"Michigan","state_code":"MI","latitude":42.2411,"longitude":-83.613098,"population":21464,"new_follower_count":1},{"rank":62,"city":"Milwaukee","state":"Wisconsin","state_code":"WI","latitude":43.038898,"longitude":-87.906403,"population":604477,"new_follower_count":1},{"rank":63,"city":"Decatur","state":"Alabama","state_code":"AL","latitude":34.605801,"longitude":-86.983299,"population":56068,"new_follower_count":1},{"rank":64,"city":"South Portland","state":"Maine","state_code":"ME","latitude":43.641399,"longitude":-70.241402,"population":23803,"new_follower_count":1},{"rank":65,"city":"Salisbury","state":"Maryland","state_code":"MD","latitude":38.3606,"longitude":-75.599701,"population":28200,"new_follower_count":1},{"rank":66,"city":"Madison","state":"Indiana","state_code":"IN","latitude":38.735802,"longitude":-85.379997,"population":12716,"new_follower_count":1},{"rank":67,"city":"Rancho Cordova","state":"California","state_code":"CA","latitude":38.589199,"longitude":-121.301697,"population":62265,"new_follower_count":1},{"rank":68,"city":"Sioux Falls","state":"South Dakota","state_code":"SD","latitude":43.545975,"longitude":-96.726814,"population":154997,"new_follower_count":1},{"rank":69,"city":"Wilson","state":"North Carolina","state_code":"NC","latitude":35.7211,"longitude":-77.915802,"population":48433,"new_follower_count":1},{"rank":70,"city":"Athens","state":"Tennessee","state_code":"TN","latitude":35.442799,"longitude":-84.593102,"population":14275,"new_follower_count":1},{"rank":71,"city":"Arcadia","state":"California","state_code":"CA","latitude":34.139702,"longitude":-118.034401,"population":56248,"new_follower_count":1},{"rank":72,"city":"Shelbyville","state":"Tennessee","state_code":"TN","latitude":35.483299,"longitude":-86.460297,"population":19669,"new_follower_count":1},{"rank":73,"city":"London","state":"Ohio","state_code":"OH","latitude":39.886398,"longitude":-83.448303,"population":9587,"new_follower_count":1},{"rank":74,"city":"Rochester","state":"New York","state_code":"NY","latitude":43.154701,"longitude":-77.615799,"population":206886,"new_follower_count":1},{"rank":75,"city":"Staunton","state":"Virginia","state_code":"VA","latitude":38.149399,"longitude":-79.071899,"population":23967,"new_follower_count":1},{"rank":76,"city":"Visalia","state":"California","state_code":"CA","latitude":36.330299,"longitude":-119.2911,"population":121040,"new_follower_count":1},{"rank":77,"city":"Alliance","state":"Ohio","state_code":"OH","latitude":40.915298,"longitude":-81.106102,"population":22476,"new_follower_count":1},{"rank":78,"city":"Honolulu","state":"Hawaii","state_code":"HI","latitude":21.303759,"longitude":-157.855545,"population":374676,"new_follower_count":1},{"rank":79,"city":"Spring Hill","state":"Tennessee","state_code":"TN","latitude":35.751099,"longitude":-86.93,"population":26230,"new_follower_count":1},{"rank":80,"city":"Algonquin","state":"Illinois","state_code":"IL","latitude":42.1656,"longitude":-88.294197,"population":30352,"new_follower_count":1},{"rank":81,"city":"Durham","state":"North Carolina","state_code":"NC","latitude":35.9939,"longitude":-78.898903,"population":223284,"new_follower_count":1},{"rank":82,"city":"Detroit Lakes","state":"Minnesota","state_code":"MN","latitude":46.8172,"longitude":-95.845001,"population":8141,"new_follower_count":1},{"rank":83,"city":"Denver","state":"Colorado","state_code":"CO","latitude":39.740112,"longitude":-104.984856,"population":598707,"new_follower_count":1},{"rank":84,"city":"Watertown","state":"New York","state_code":"NY","latitude":43.974701,"longitude":-75.911102,"population":27310,"new_follower_count":1},{"rank":85,"city":"Pasadena","state":"California","state_code":"CA","latitude":34.1478,"longitude":-118.1436,"population":143080,"new_follower_count":1},{"rank":86,"city":"Oakland","state":"California","state_code":"CA","latitude":37.804401,"longitude":-122.269699,"population":404155,"new_follower_count":1},{"rank":87,"city":"Richmond","state":"Texas","state_code":"TX","latitude":29.5819,"longitude":-95.760597,"population":13493,"new_follower_count":1},{"rank":88,"city":"Little Rock","state":"Arkansas","state_code":"AR","latitude":34.746391,"longitude":-92.289436,"population":189515,"new_follower_count":1},{"rank":89,"city":"Kent","state":"Washington","state_code":"WA","latitude":47.3811,"longitude":-122.233597,"population":83978,"new_follower_count":1},{"rank":90,"city":"Tacoma","state":"Washington","state_code":"WA","latitude":47.253101,"longitude":-122.4431,"population":197181,"new_follower_count":1},{"rank":91,"city":"Brunswick","state":"Georgia","state_code":"GA","latitude":31.1497,"longitude":-81.491699,"population":16269,"new_follower_count":1},{"rank":92,"city":"Santa Clara","state":"California","state_code":"CA","latitude":37.354198,"longitude":-121.954201,"population":110200,"new_follower_count":1},{"rank":93,"city":"Charlottesville","state":"Virginia","state_code":"VA","latitude":38.029202,"longitude":-78.476898,"population":41487,"new_follower_count":1},{"rank":94,"city":"Sandy","state":"Utah","state_code":"UT","latitude":40.591671,"longitude":-111.883331,"population":96660,"new_follower_count":1},{"rank":95,"city":"Aurora","state":"Illinois","state_code":"IL","latitude":41.760601,"longitude":-88.32,"population":171782,"new_follower_count":1},{"rank":96,"city":"Santa Maria","state":"California","state_code":"CA","latitude":34.953098,"longitude":-120.4347,"population":86356,"new_follower_count":1},{"rank":97,"city":"La Verne","state":"California","state_code":"CA","latitude":34.1008,"longitude":-117.766899,"population":33623,"new_follower_count":1},{"rank":98,"city":"Germantown","state":"Tennessee","state_code":"TN","latitude":35.0867,"longitude":-89.809998,"population":37251,"new_follower_count":1},{"rank":99,"city":"Charleston","state":"South Carolina","state_code":"SC","latitude":32.776401,"longitude":-79.931099,"population":111978,"new_follower_count":1},{"rank":100,"city":"Dayton","state":"Ohio","state_code":"OH","latitude":39.7589,"longitude":-84.191704,"population":154200,"new_follower_count":1},{"rank":101,"city":"Springfield","state":"Massachusetts","state_code":"MA","latitude":42.101398,"longitude":-72.590302,"population":150640,"new_follower_count":1},{"rank":102,"city":"Lancaster","state":"California","state_code":"CA","latitude":34.698101,"longitude":-118.135803,"population":145469,"new_follower_count":1},{"rank":103,"city":"Bismarck","state":"North Dakota","state_code":"ND","latitude":46.8083,"longitude":-100.783302,"population":60389,"new_follower_count":1},{"rank":104,"city":"Irvine","state":"California","state_code":"CA","latitude":33.669399,"longitude":-117.822197,"population":207500,"new_follower_count":1},{"rank":105,"city":"Burlington","state":"Iowa","state_code":"IA","latitude":40.807499,"longitude":-91.112801,"population":25327,"new_follower_count":1},{"rank":106,"city":"Eugene","state":"Oregon","state_code":"OR","latitude":44.0522,"longitude":-123.085602,"population":150104,"new_follower_count":1},{"rank":107,"city":"Mesquite","state":"Texas","state_code":"TX","latitude":32.7667,"longitude":-96.5989,"population":132123,"new_follower_count":1},{"rank":108,"city":"Spring Valley","state":"New York","state_code":"NY","latitude":41.113098,"longitude":-74.044197,"population":26291,"new_follower_count":1},{"rank":109,"city":"Lexington","state":"Virginia","state_code":"VA","latitude":37.783901,"longitude":-79.4431,"population":7003,"new_follower_count":1},{"rank":110,"city":"Morristown","state":"Tennessee","state_code":"TN","latitude":36.213902,"longitude":-83.294998,"population":27636,"new_follower_count":1},{"rank":111,"city":"Stroudsburg","state":"Pennsylvania","state_code":"PA","latitude":40.986698,"longitude":-75.195,"population":6294,"new_follower_count":1},{"rank":112,"city":"Centralia","state":"Illinois","state_code":"IL","latitude":38.525002,"longitude":-89.133301,"population":13569,"new_follower_count":1},{"rank":113,"city":"Stamford","state":"Connecticut","state_code":"CT","latitude":41.053299,"longitude":-73.5392,"population":119303,"new_follower_count":1},{"rank":114,"city":"Chattanooga","state":"Tennessee","state_code":"TN","latitude":35.045601,"longitude":-85.3097,"population":170880,"new_follower_count":1},{"rank":115,"city":"Riverbank","state":"California","state_code":"CA","latitude":37.736099,"longitude":-120.934402,"population":20606,"new_follower_count":1},{"rank":116,"city":"Pomona","state":"California","state_code":"CA","latitude":34.055302,"longitude":-117.751404,"population":152699,"new_follower_count":1},{"rank":117,"city":"Ottawa","state":"Kansas","state_code":"KS","latitude":38.615601,"longitude":-95.267502,"population":12850,"new_follower_count":1},{"rank":118,"city":"Topeka","state":"Kansas","state_code":"KS","latitude":39.048302,"longitude":-95.677803,"population":123446,"new_follower_count":1},{"rank":119,"city":"Fort Lauderdale","state":"Florida","state_code":"FL","latitude":26.121901,"longitude":-80.1436,"population":183126,"new_follower_count":1},{"rank":120,"city":"Aberdeen","state":"South Dakota","state_code":"SD","latitude":45.464699,"longitude":-98.486099,"population":24460,"new_follower_count":1},{"rank":121,"city":"Goleta","state":"California","state_code":"CA","latitude":34.435799,"longitude":-119.826698,"population":29404,"new_follower_count":1},{"rank":122,"city":"Edgewater","state":"Florida","state_code":"FL","latitude":28.9886,"longitude":-80.902496,"population":21415,"new_follower_count":1},{"rank":123,"city":"Baton Rouge","state":"Louisiana","state_code":"LA","latitude":30.4506,"longitude":-91.154404,"population":223689,"new_follower_count":1},{"rank":124,"city":"Raleigh","state":"North Carolina","state_code":"NC","latitude":35.7719,"longitude":-78.638901,"population":392552,"new_follower_count":1},{"rank":125,"city":"Maryville","state":"Tennessee","state_code":"TN","latitude":35.756401,"longitude":-83.970596,"population":27156,"new_follower_count":1},{"rank":126,"city":"New Castle","state":"Pennsylvania","state_code":"PA","latitude":41.003601,"longitude":-80.347198,"population":24212,"new_follower_count":1},{"rank":127,"city":"Hialeah","state":"Florida","state_code":"FL","latitude":25.857201,"longitude":-80.278297,"population":210542,"new_follower_count":1},{"rank":128,"city":"West Columbia","state":"South Carolina","state_code":"SC","latitude":33.993301,"longitude":-81.074203,"population":13914,"new_follower_count":1},{"rank":129,"city":"Chowchilla","state":"California","state_code":"CA","latitude":37.1231,"longitude":-120.259201,"population":19193,"new_follower_count":1},{"rank":130,"city":"Memphis","state":"Tennessee","state_code":"TN","latitude":35.149399,"longitude":-90.048897,"population":669651,"new_follower_count":1},{"rank":131,"city":"Germantown","state":"Wisconsin","state_code":"WI","latitude":43.2286,"longitude":-88.110298,"population":19594,"new_follower_count":1},{"rank":132,"city":"Monroeville","state":"Pennsylvania","state_code":"PA","latitude":40.421101,"longitude":-79.7883,"population":27639,"new_follower_count":1},{"rank":133,"city":"Parma","state":"Ohio","state_code":"OH","latitude":41.404701,"longitude":-81.723099,"population":77947,"new_follower_count":1},{"rank":134,"city":"Scranton","state":"Pennsylvania","state_code":"PA","latitude":41.408901,"longitude":-75.662804,"population":72233,"new_follower_count":1},{"rank":135,"city":"Merrillville","state":"Indiana","state_code":"IN","latitude":41.4828,"longitude":-87.332802,"population":33057,"new_follower_count":1},{"rank":136,"city":"Beaverton","state":"Oregon","state_code":"OR","latitude":45.487202,"longitude":-122.802498,"population":91757,"new_follower_count":1},{"rank":137,"city":"Greenville","state":"North Carolina","state_code":"NC","latitude":35.612499,"longitude":-77.366669,"population":79629,"new_follower_count":1},{"rank":138,"city":"Greenfield","state":"Indiana","state_code":"IN","latitude":39.785,"longitude":-85.769402,"population":18787,"new_follower_count":1},{"rank":139,"city":"Saratoga","state":"California","state_code":"CA","latitude":37.263901,"longitude":-122.021896,"population":30445,"new_follower_count":1},{"rank":140,"city":"Talladega","state":"Alabama","state_code":"AL","latitude":33.435799,"longitude":-86.105797,"population":16943,"new_follower_count":1},{"rank":141,"city":"Des Moines","state":"Iowa","state_code":"IA","latitude":41.600601,"longitude":-93.608902,"population":197052,"new_follower_count":1},{"rank":142,"city":"Canton","state":"Ohio","state_code":"OH","latitude":40.798901,"longitude":-81.378601,"population":78362,"new_follower_count":1},{"rank":143,"city":"Boynton Beach","state":"Florida","state_code":"FL","latitude":26.525,"longitude":-80.066704,"population":68291,"new_follower_count":1},{"rank":144,"city":"Aurora","state":"Colorado","state_code":"CO","latitude":39.729401,"longitude":-104.831398,"population":319057,"new_follower_count":1},{"rank":145,"city":"Phoenix","state":"Arizona","state_code":"AZ","latitude":33.448299,"longitude":-112.073303,"population":1567924,"new_follower_count":1},{"rank":146,"city":"Scottsdale","state":"Arizona","state_code":"AZ","latitude":33.5092,"longitude":-111.8983,"population":235371,"new_follower_count":1},{"rank":147,"city":"Syracuse","state":"New York","state_code":"NY","latitude":43.0481,"longitude":-76.147797,"population":138068,"new_follower_count":1},{"rank":148,"city":"Chicago Ridge","state":"Illinois","state_code":"IL","latitude":41.701401,"longitude":-87.779198,"population":13366,"new_follower_count":1},{"rank":149,"city":"Buffalo","state":"Wyoming","state_code":"WY","latitude":44.348301,"longitude":-106.698303,"population":4832,"new_follower_count":1},{"rank":150,"city":"Boca Raton","state":"Florida","state_code":"FL","latitude":26.358299,"longitude":-80.083298,"population":85670,"new_follower_count":1},{"rank":151,"city":"Jamestown","state":"New York","state_code":"NY","latitude":42.096901,"longitude":-79.235603,"population":29463,"new_follower_count":1},{"rank":152,"city":"Winston-Salem","state":"North Carolina","state_code":"NC","latitude":36.099701,"longitude":-80.2444,"population":217600,"new_follower_count":1},{"rank":153,"city":"Champaign","state":"Illinois","state_code":"IL","latitude":40.116402,"longitude":-88.243301,"population":79389,"new_follower_count":1},{"rank":154,"city":"New Rochelle","state":"New York","state_code":"NY","latitude":40.9114,"longitude":-73.782799,"population":74115,"new_follower_count":1},{"rank":155,"city":"Boone","state":"North Carolina","state_code":"NC","latitude":36.216702,"longitude":-81.674698,"population":13945,"new_follower_count":1},{"rank":156,"city":"Hinesville","state":"Georgia","state_code":"GA","latitude":31.846701,"longitude":-81.5961,"population":30152,"new_follower_count":1},{"rank":157,"city":"Flagstaff","state":"Arizona","state_code":"AZ","latitude":35.198101,"longitude":-111.650597,"population":60222,"new_follower_count":1},{"rank":158,"city":"Arlington","state":"Virginia","state_code":"VA","latitude":38.890282,"longitude":-77.084442,"population":209969,"new_follower_count":1},{"rank":159,"city":"Beaumont","state":"Texas","state_code":"TX","latitude":30.0858,"longitude":-94.1017,"population":110553,"new_follower_count":1},{"rank":160,"city":"Fort Collins","state":"Colorado","state_code":"CO","latitude":40.5853,"longitude":-105.0839,"population":136509,"new_follower_count":1},{"rank":161,"city":"Harrisburg","state":"Pennsylvania","state_code":"PA","latitude":40.273602,"longitude":-76.884697,"population":47148,"new_follower_count":1},{"rank":162,"city":"Buffalo","state":"New York","state_code":"NY","latitude":42.886398,"longitude":-78.878601,"population":270919,"new_follower_count":1},{"rank":163,"city":"Pampa","state":"Texas","state_code":"TX","latitude":35.536098,"longitude":-100.959396,"population":17382,"new_follower_count":1},{"rank":164,"city":"Elkhart","state":"Indiana","state_code":"IN","latitude":41.6819,"longitude":-85.9767,"population":52653,"new_follower_count":1},{"rank":165,"city":"Stoughton","state":"Wisconsin","state_code":"WI","latitude":42.916901,"longitude":-89.217796,"population":12966,"new_follower_count":1},{"rank":166,"city":"Roanoke Rapids","state":"North Carolina","state_code":"NC","latitude":36.461399,"longitude":-77.654404,"population":16403,"new_follower_count":1},{"rank":167,"city":"Butner","state":"North Carolina","state_code":"NC","latitude":36.131901,"longitude":-78.756897,"population":6169,"new_follower_count":1},{"rank":168,"city":"Portland","state":"Maine","state_code":"ME","latitude":43.6614,"longitude":-70.255798,"population":62561,"new_follower_count":1},{"rank":169,"city":"Loveland","state":"Ohio","state_code":"OH","latitude":39.263302,"longitude":-84.260002,"population":11734,"new_follower_count":1},{"rank":170,"city":"Salinas","state":"California","state_code":"CA","latitude":36.677799,"longitude":-121.654404,"population":143640,"new_follower_count":1},{"rank":171,"city":"Hammond","state":"Louisiana","state_code":"LA","latitude":30.5042,"longitude":-90.461098,"population":19803,"new_follower_count":1},{"rank":172,"city":"Washington","state":"Indiana","state_code":"IN","latitude":38.659199,"longitude":-87.172798,"population":11397,"new_follower_count":1},{"rank":173,"city":"Lowell","state":"Massachusetts","state_code":"MA","latitude":42.633301,"longitude":-71.316704,"population":103615,"new_follower_count":1},{"rank":174,"city":"Fostoria","state":"Ohio","state_code":"OH","latitude":41.156898,"longitude":-83.416901,"population":13000,"new_follower_count":1},{"rank":175,"city":"Hazleton","state":"Pennsylvania","state_code":"PA","latitude":40.958302,"longitude":-75.974998,"population":21732,"new_follower_count":1},{"rank":176,"city":"Kenosha","state":"Wisconsin","state_code":"WI","latitude":42.584702,"longitude":-87.821098,"population":96950,"new_follower_count":1},{"rank":177,"city":"New Haven","state":"Connecticut","state_code":"CT","latitude":41.308102,"longitude":-72.928596,"population":123669,"new_follower_count":1},{"rank":178,"city":"Huntington","state":"West Virginia","state_code":"WV","latitude":38.419201,"longitude":-82.445297,"population":49185,"new_follower_count":1},{"rank":179,"city":"Pella","state":"Iowa","state_code":"IA","latitude":41.4081,"longitude":-92.9161,"population":10208,"new_follower_count":1},{"rank":180,"city":"Austin","state":"Texas","state_code":"TX","latitude":30.266899,"longitude":-97.742798,"population":757688,"new_follower_count":1},{"rank":181,"city":"Midland","state":"Texas","state_code":"TX","latitude":31.9972,"longitude":-102.077499,"population":106561,"new_follower_count":1},{"rank":182,"city":"Columbus","state":"Georgia","state_code":"GA","latitude":32.4608,"longitude":-84.987801,"population":186984,"new_follower_count":1},{"rank":183,"city":"Akron","state":"Ohio","state_code":"OH","latitude":41.081402,"longitude":-81.519203,"population":207510,"new_follower_count":1},{"rank":184,"city":"Poughkeepsie","state":"New York","state_code":"NY","latitude":41.700298,"longitude":-73.921402,"population":29654,"new_follower_count":1},{"rank":185,"city":"Rockledge","state":"Florida","state_code":"FL","latitude":28.350599,"longitude":-80.725601,"population":24747,"new_follower_count":1},{"rank":186,"city":"Rome","state":"Georgia","state_code":"GA","latitude":34.256901,"longitude":-85.164703,"population":36041,"new_follower_count":1}]}